City_ID,City,Cloudiness,Country,Date,Humidity,Lat,Lng,Max Temp,Wind Speed
3833367,Ushuaia,20,AR,1603764187,39,-54.8,-68.3,48.2,18.34
4030556,Rikitea,100,PF,1603764188,86,-23.12,-134.97,75.38,14.34
3939761,Hualmay,79,PE,1603764189,82,-11.1,-77.61,63.93,8.14
556268,Ostrovnoy,100,RU,1603764164,94,68.05,39.51,41.43,23.94
4231997,Avera,40,US,1603764191,90,33.19,-82.53,64.4,3.85
5106841,Albany,100,US,1603763992,89,42.6,-73.97,51.01,1.5
2136150,Luganville,40,VU,1603764193,66,-15.53,167.17,84.2,11.41
2155415,New Norfolk,88,AU,1603764195,48,-42.78,147.06,59.0,3.0
3421319,Nuuk,93,GL,1603764196,63,64.18,-51.72,28.4,4.7
3601282,Sinuapa,88,HN,1603764197,90,14.45,-89.18,66.67,2.13
2122574,Ola,81,RU,1603764198,75,59.58,151.28,35.78,10.54
3628473,San Cristobal,19,VE,1603764051,90,7.77,-72.22,67.28,2.01
863061,Usinsk,100,RU,1603764200,95,65.99,57.53,15.26,7.78
1806840,Huilong,93,CN,1603764202,75,31.81,121.66,71.01,3.0
2986626,Plouzané,100,FR,1603764203,87,48.38,-4.62,53.6,13.87
2030065,Mandalgovi,0,MN,1603764091,60,45.76,106.27,33.46,6.89
3412093,Vestmannaeyjar,100,IS,1603764205,74,63.44,-20.27,42.55,37.65
1174062,Kharan,0,PK,1603764051,36,28.58,65.42,52.99,0.4
2120047,Ust'-Omchug,0,RU,1603764207,91,61.15,149.63,22.8,6.11
3985710,Cabo San Lucas,20,MX,1603763940,65,22.89,-109.91,84.2,12.75
2138555,Poum,91,NC,1603764102,75,-20.23,164.02,76.39,12.33
2206939,Bluff,21,NZ,1603764087,62,-46.6,168.33,57.99,5.99
2122090,Pevek,95,RU,1603764213,93,69.7,170.31,21.45,20.27
3471451,Arraial do Cabo,3,BR,1603764101,88,-22.97,-42.03,72.07,11.25
2894394,Jüterbog,93,DE,1603764215,87,51.98,13.08,46.99,8.37
6201424,Mataura,76,NZ,1603763992,62,-46.19,168.86,57.99,5.99
7626405,Skibotn,0,NO,1603764217,80,69.39,20.27,41.0,31.09
5970873,Hare Bay,90,CA,1603764218,64,48.85,-54.01,35.6,5.82
1071296,Antalaha,11,MG,1603764219,83,-14.9,50.28,68.79,5.35
915285,Kalengwa,89,ZM,1603764220,42,-13.47,25.0,66.76,4.27
3386213,Touros,75,BR,1603764088,88,-5.2,-35.46,77.0,4.7
2084442,Vanimo,0,PG,1603764222,60,-2.67,141.3,85.73,5.1
4353765,Dundalk,90,US,1603764223,100,39.25,-76.52,59.0,0.63
3452483,Prado,1,BR,1603764224,91,-17.34,-39.22,72.99,3.87
2092164,Lorengau,79,PG,1603764226,76,-2.02,147.27,82.69,3.62
3423146,Ilulissat,100,GL,1603764008,73,69.22,-51.1,19.4,2.24
2264557,Ponta do Sol,20,PT,1603764229,68,32.67,-17.1,66.2,10.29
2163355,Hobart,75,AU,1603763933,54,-42.88,147.33,59.0,10.29
964432,Port Alfred,85,ZA,1603764084,86,-33.59,26.89,67.42,25.66
3761194,Miraflores,40,MX,1603764233,45,19.22,-98.81,66.2,10.29
3416888,Grindavik,75,IS,1603764234,73,63.84,-22.43,37.4,18.34
5983720,Iqaluit,90,CA,1603764236,85,63.75,-68.51,17.6,3.36
3355672,Lüderitz,0,NA,1603764237,81,-26.65,15.16,57.9,9.24
934322,Mahébourg,40,MU,1603763995,78,-20.41,57.7,71.6,8.05
3666409,Uribia,91,CO,1603764239,76,11.71,-72.27,81.25,12.57
104515,Makkah al Mukarramah,0,SA,1603764240,74,21.43,39.83,73.24,0.6
5563839,Fortuna,1,US,1603764241,66,40.6,-124.16,53.01,6.93
295277,Eilat,0,IL,1603763944,36,29.56,34.95,75.2,5.91
3382160,Cayenne,20,GF,1603764243,100,4.93,-52.33,78.8,4.7
707296,Izyaslav,0,UA,1603764245,92,50.12,26.82,48.33,7.49
3860443,Comodoro Rivadavia,0,AR,1603764246,42,-45.87,-67.5,62.6,12.75
4032243,Vaini,75,TO,1603764159,94,-21.2,-175.2,73.4,9.17
1513491,Yangi Marg`ilon,0,UZ,1603764248,52,40.43,71.72,41.0,6.93
3366880,Hermanus,0,ZA,1603764249,85,-34.42,19.23,62.01,1.99
4034496,Fare,94,PF,1603764250,75,-16.7,-151.02,81.48,17.09
1786640,Chengzhong,82,CN,1603764251,77,30.95,113.55,66.2,2.24
3668605,Santa Marta,55,CO,1603764252,79,11.24,-74.2,84.0,1.01
2022572,Khatanga,90,RU,1603764253,94,71.97,102.5,1.81,9.1
3831208,Qaanaaq,99,GL,1603764160,77,77.48,-69.36,8.76,8.99
2110227,Butaritari,11,KI,1603764255,68,3.07,172.79,81.55,10.89
5848280,Kapaa,90,US,1603764101,88,22.08,-159.32,71.6,11.41
1078553,Ampanihy,0,MG,1603764257,75,-24.7,44.75,67.28,4.12
6180550,Whitehorse,40,CA,1603764047,28,60.72,-135.05,46.4,13.87
5282297,Bethel,90,US,1603764259,100,41.37,-73.41,54.0,0.6
3926438,Urubamba,80,PE,1603764041,58,-13.3,-72.12,58.03,3.76
3874787,Punta Arenas,20,CL,1603764261,75,-53.15,-70.92,44.6,24.16
4034551,Faanui,100,PF,1603764074,76,-16.48,-151.75,80.65,17.65
933995,Souillac,40,MU,1603764114,78,-20.52,57.52,71.6,8.05
1628884,Sampit,100,ID,1603764265,95,-2.53,112.95,74.55,4.12
1714733,Dingle,83,PH,1603764266,81,11.0,122.67,82.17,7.25
1182092,Būrewāla,0,PK,1603764267,28,30.17,72.65,64.8,1.41
2127202,Anadyr,75,RU,1603764268,92,64.75,177.48,21.2,6.71
2075265,Busselton,69,AU,1603764089,66,-33.65,115.33,68.0,5.99
878281,Lindi,40,TZ,1603764271,83,-10.0,39.72,75.2,5.82
2074865,Carnarvon,0,AU,1603764144,69,-24.87,113.63,73.4,25.28
6170031,Tuktoyaktuk,20,CA,1603764055,78,69.45,-133.04,10.4,12.75
3135601,Olden,38,NO,1603764274,87,61.84,6.81,34.0,6.73
3932145,Pisco,0,PE,1603764142,82,-13.7,-76.22,63.0,16.11
2134814,Sola,33,VU,1603764276,81,-13.88,167.55,80.11,20.4
3924908,Pimenta Bueno,97,BR,1603764278,90,-11.67,-61.19,74.7,2.51
6185377,Yellowknife,90,CA,1603764028,67,62.46,-114.35,23.0,11.41
2400547,Gamba,100,GA,1603764281,88,-2.65,10.0,76.03,5.7
5919850,Chapais,90,CA,1603764161,86,49.78,-74.85,28.4,11.41
2331140,Makurdi,100,NG,1603764284,89,7.74,8.51,75.0,3.89
5880054,Barrow,90,US,1603763855,85,71.29,-156.79,19.4,10.29
1650232,Banjar,75,ID,1603764286,74,-8.19,114.97,82.4,5.82
4035715,Avarua,100,CK,1603764080,83,-21.21,-159.78,71.6,8.05
546105,Nikolskoye,75,RU,1603764097,87,59.7,30.79,50.0,8.95
5122534,Jamestown,90,US,1603764001,87,42.1,-79.24,44.01,9.17
2065594,Mount Isa,75,AU,1603764017,17,-20.73,139.5,82.4,5.82
935215,Saint-Philippe,90,RE,1603764291,78,-21.36,55.77,71.6,13.82
1842966,Gijang,0,KR,1603764130,62,35.24,129.21,59.0,2.24
6620339,Karratha,0,AU,1603764055,30,-20.74,116.85,86.41,6.82
3674702,Miranda,75,CO,1603764294,78,3.25,-76.23,75.2,5.82
1735106,George Town,20,MY,1603764296,83,5.41,100.34,84.2,3.36
2132606,Samarai,99,PG,1603764298,78,-10.62,150.67,82.08,6.87
2013392,Vilyuysk,97,RU,1603764299,92,63.76,121.62,10.26,5.57
2063042,Port Hedland,40,AU,1603764042,65,-20.32,118.57,82.4,10.29
3669087,Pueblo Bello,62,CO,1603764301,95,8.2,-76.53,74.61,1.32
1819729,Hong Kong,32,HK,1603764302,61,22.29,114.16,80.01,4.0
3647444,Calabozo,0,VE,1603764303,93,8.92,-67.43,75.0,4.54
1106677,Bambous Virieux,40,MU,1603764084,78,-20.34,57.76,73.0,8.05
1492566,Severo-Yeniseyskiy,93,RU,1603764305,97,60.37,93.04,13.86,4.43
3631412,Ocumare del Tuy,21,VE,1603764306,89,10.12,-66.78,72.5,2.84
3698359,Chicama,100,PE,1603764308,79,-7.84,-79.15,64.85,6.24
3421765,Nanortalik,97,GL,1603764309,91,60.14,-45.24,33.01,13.2
2239862,Malanje,100,AO,1603764310,97,-9.54,16.34,65.86,6.04
5044290,Saint Anthony,1,US,1603764066,58,45.02,-93.22,24.8,4.7
2208248,Kaitangata,19,NZ,1603764312,70,-46.28,169.85,53.01,15.01
2015701,Taksimo,5,RU,1603764313,84,56.34,114.88,19.69,3.42
5962442,Goderich,100,CA,1603763881,82,43.75,-81.72,46.0,10.6
3443061,Chui,94,UY,1603764316,80,-33.7,-53.46,56.28,11.18
2398283,Mitzic,100,GA,1603764317,99,0.78,11.55,67.73,4.25
3466704,Castro,100,BR,1603764318,92,-24.79,-50.01,61.9,3.33
1863978,Nishifukuma,75,JP,1603764038,59,33.77,130.47,75.99,2.24
1256693,Shājāpur,0,IN,1603764320,45,23.43,76.27,69.24,4.47
5855927,Hilo,90,US,1603764148,88,19.73,-155.09,75.99,12.75
3369157,Cape Town,0,ZA,1603763822,87,-33.93,18.42,61.0,6.93
3372472,Vila Franca do Campo,75,PT,1603764324,88,37.72,-25.43,68.0,17.22
1650434,Bambanglipuro,100,ID,1603764325,78,-7.95,110.28,81.03,8.39
3161733,Bergen,40,NO,1603764326,81,60.39,5.33,45.0,12.75
3652764,Puerto Ayora,51,EC,1603764327,92,-0.74,-90.35,68.0,1.99
6355222,Yulara,0,AU,1603764068,21,-25.24,130.99,77.0,6.93
2181625,Te Anau,2,NZ,1603764062,50,-45.42,167.72,59.04,7.31
2017155,Saskylakh,92,RU,1603764101,92,71.92,114.08,-0.29,5.61
3380290,Sinnamary,1,GF,1603764166,83,5.38,-52.95,79.79,8.48
4513583,Hamilton,90,US,1603764332,81,39.18,-84.53,48.2,4.7
1861280,Itoman,20,JP,1603764333,54,26.12,127.67,80.6,10.29
525426,Sobolevo,11,RU,1603764334,91,54.43,31.9,43.09,11.03
2126710,Beringovskiy,0,RU,1603764335,84,63.05,179.32,33.55,2.64
203717,Yangambi,15,CD,1603764072,96,0.81,24.43,69.35,1.03
2171099,Codrington,93,AU,1603764107,77,-38.27,141.97,58.26,13.69
1651810,Airai,58,TL,1603764339,56,-8.93,125.41,77.41,3.44
562627,Firovo,99,RU,1603764340,92,57.48,33.7,43.38,8.93
5866063,Kenai,90,US,1603764341,65,60.55,-151.26,44.6,12.75
3430863,Mar del Plata,0,AR,1603764204,76,-38.0,-57.56,55.99,5.82
4020109,Atuona,73,PF,1603764343,74,-9.8,-139.03,79.03,20.18
1507116,Dudinka,40,RU,1603764094,84,69.41,86.18,3.2,6.71
6096551,Pangnirtung,3,CA,1603764345,83,66.15,-65.71,7.38,7.34
1258698,Rameswaram,30,IN,1603764346,72,9.28,79.3,82.78,6.06
917688,Chongwe,1,ZM,1603764347,53,-15.33,28.68,67.82,5.3
3843123,Neuquén,0,AR,1603764229,24,-38.95,-68.06,66.2,10.29
986717,Kruisfontein,1,ZA,1603764100,88,-34.0,24.73,64.99,1.99
3346015,Sumbe,98,AO,1603764351,87,-11.21,13.84,74.84,8.05
2123278,Mil'kovo,100,RU,1603764353,95,54.72,158.62,38.32,5.39
3418910,Upernavik,36,GL,1603764124,83,72.79,-56.15,17.29,4.09
1058381,Morondava,0,MG,1603764355,70,-20.28,44.28,73.72,3.15
3404558,Cabedelo,20,BR,1603764356,83,-6.98,-34.83,78.8,4.7
1006984,East London,66,ZA,1603764273,84,-33.02,27.91,67.32,17.31
6089245,Norman Wells,75,CA,1603764359,79,65.28,-126.83,24.8,20.8
514796,Orlovskiy,47,RU,1603764360,58,46.87,42.06,47.19,14.05
3533462,Acapulco de Juárez,75,MX,1603764273,83,16.86,-99.89,84.2,5.82
797725,Kara-Tyube,2,RU,1603764362,78,44.63,45.44,47.97,8.05
2194098,Ahipara,69,NZ,1603764363,73,-35.17,173.17,68.52,8.75
3395458,Maragogi,0,BR,1603764365,83,-9.01,-35.22,76.21,10.71
3424607,Tasiilaq,100,GL,1603764112,47,65.61,-37.64,33.8,21.92
5134295,Rome,90,US,1603764234,87,43.21,-75.46,48.2,6.93
5870133,Nome,75,US,1603764243,64,64.5,-165.41,35.6,11.41
4031574,Provideniya,90,RU,1603764075,69,64.38,-173.3,33.8,5.01
1214488,Meulaboh,58,ID,1603764371,75,4.14,96.13,81.64,3.51
1015776,Bredasdorp,33,ZA,1603764264,88,-34.53,20.04,64.4,3.36
2189343,Kaeo,19,NZ,1603764079,67,-35.1,173.78,70.09,8.61
5866583,Saint Paul Harbor,1,US,1603764082,46,57.79,-152.41,50.0,24.16
2121025,Srednekolymsk,0,RU,1603764375,91,67.45,153.68,11.17,5.55
2610343,Vestmanna,21,FO,1603764376,76,62.16,-7.17,33.8,1.12
1507636,Chunskiy,100,RU,1603764377,95,56.08,99.63,32.7,5.66
286621,Salalah,0,OM,1603764206,60,17.02,54.09,75.2,2.24
527321,Mezen',100,RU,1603764380,91,65.85,44.24,34.14,13.06
3445026,Vila Velha,0,BR,1603764381,78,-20.33,-40.29,73.4,10.29
2263905,Ribeira Brava,20,PT,1603764383,68,32.65,-17.07,66.2,10.29
2015306,Tiksi,98,RU,1603764206,94,71.69,128.87,6.37,5.14
3532964,Alvarado,40,MX,1603764385,69,18.77,-95.77,82.4,3.36
4470244,Havelock,1,US,1603764386,93,34.88,-76.9,63.0,4.29
1626703,Soe,82,ID,1603764387,46,-9.86,124.28,85.21,5.14
2094746,Kandrian,57,PG,1603764388,66,-6.22,149.55,86.05,4.45
1489853,Tazovsky,0,RU,1603764389,92,67.47,78.7,-1.62,6.58
2729907,Longyearbyen,75,SJ,1603764390,86,78.22,15.64,26.6,6.93
3408386,Acará,100,BR,1603764391,92,-1.96,-48.2,75.63,3.31
3374083,Bathsheba,75,BB,1603764394,88,13.22,-59.52,77.0,19.46
4726521,San Patricio,20,US,1603764395,78,28.02,-97.52,78.8,14.99
2173911,Broken Hill,90,AU,1603764382,67,-31.95,141.43,59.0,9.17
2019135,Nizhniy Kuranakh,100,RU,1603764398,93,58.84,125.49,17.56,4.76
1507390,Dikson,78,RU,1603764399,95,73.51,80.55,10.47,17.29
3666475,Unguía,90,CO,1603764400,88,8.04,-77.09,76.91,2.35
2112309,Katsuura,75,JP,1603764401,59,35.13,140.3,66.99,11.41
2108502,Honiara,40,SB,1603764402,70,-9.43,159.95,87.8,10.29
2136825,Isangel,75,VU,1603764403,58,-19.55,169.27,84.2,9.17
1502073,Krasnosel'kup,0,RU,1603764404,90,65.7,82.47,-2.2,10.38
5955902,Fort Nelson,90,CA,1603764405,92,58.81,-122.7,32.0,3.36
3374333,Praia,40,CV,1603764406,78,14.92,-23.51,78.8,12.75
1791779,Wanning,79,CN,1603764407,76,18.8,110.4,78.57,17.98
2012593,Zeya,100,RU,1603764408,74,53.75,127.27,38.19,4.97
2444995,Filingué,0,NE,1603764409,16,14.35,3.32,80.49,1.63
2270385,Camacha,40,PT,1603764411,68,33.08,-16.33,66.2,1.12
2018069,Peleduy,98,RU,1603764412,94,59.63,112.74,21.58,1.54
3869716,Tocopilla,22,CL,1603764413,63,-22.09,-70.2,59.83,2.44
2171766,Charlestown,80,AU,1603764310,82,-32.95,151.67,66.99,4.0
3415720,Hvolsvollur,100,IS,1603764415,80,63.75,-20.22,36.0,15.01
5557293,Sitka,90,US,1603764417,87,57.05,-135.33,50.0,10.29
3372707,Ribeira Grande,100,PT,1603764418,91,38.52,-28.7,68.49,13.47
1856392,Muroto-misakicho,20,JP,1603764419,60,33.28,134.15,69.8,3.36
6145425,Shaunavon,86,CA,1603764420,92,49.65,-108.42,21.67,9.75
1735634,Kuching,20,MY,1603764272,88,1.55,110.33,78.8,6.93
2122104,Petropavlovsk-Kamchatskiy,56,RU,1603764422,81,53.05,158.65,46.4,4.47
3530617,Cintalapa,100,MX,1603764423,92,16.7,-93.73,68.11,2.62
4705086,Lamar,90,US,1603764424,100,33.67,-95.58,50.0,10.29
490065,Sovetskaya,0,RU,1603764425,80,44.78,41.17,51.21,15.75
1263776,Mangan,0,IN,1603764427,31,27.52,88.53,72.77,2.64
3356832,Henties Bay,0,NA,1603764082,93,-22.12,14.28,57.0,2.24
780687,Berlevåg,0,NO,1603764429,80,70.86,29.09,37.67,15.43
1218612,Murgab,100,TM,1603764430,57,37.5,61.97,48.2,4.7
1282256,Hithadhoo,69,MV,1603764431,64,-0.6,73.08,83.43,6.67
1807308,Huangpi,78,CN,1603764432,77,30.88,114.38,66.2,2.24
1161724,Chabahar,0,IR,1603764309,50,25.29,60.64,57.2,3.62
2374583,Bubaque,2,GW,1603764434,80,11.28,-15.83,82.67,11.61
4791259,Virginia Beach,90,US,1603764291,88,36.85,-75.98,64.4,6.93
777019,Vardø,17,NO,1603764437,82,70.37,31.11,40.08,19.51
554830,Izhma,100,RU,1603764438,95,65.01,53.91,19.85,6.76
363885,Wau,100,SS,1603764439,87,7.7,28.0,73.74,2.51
2122605,Okhotsk,0,RU,1603764441,74,59.38,143.3,32.95,14.52
2017705,Poyarkovo,50,RU,1603764442,56,49.6,128.68,47.44,10.96
5404198,Twentynine Palms,1,US,1603764443,6,34.14,-116.05,57.0,18.34
3359638,Walvis Bay,0,NA,1603764444,93,-22.96,14.51,55.99,8.05
934479,Grand Gaube,0,MU,1603764173,76,-20.01,57.66,73.0,3.0
1694992,Pansoy,99,PH,1603764446,85,13.18,122.6,79.5,11.34
2012956,Yerbogachën,100,RU,1603764447,95,61.28,108.01,21.76,4.97
5969025,Haines Junction,0,CA,1603764448,93,60.75,-137.51,32.45,5.28
4034438,Haapiti,75,PF,1603764449,74,-17.57,-149.87,82.4,10.29
2630299,Hofn,70,IS,1603764450,78,64.25,-15.21,36.59,13.18
3372964,Lagoa,99,PT,1603764451,86,39.05,-27.98,67.46,13.8
6149996,Smithers,75,CA,1603764169,85,54.78,-127.17,35.6,2.01
3910094,Monteagudo,19,BO,1603764454,54,-19.82,-63.98,63.3,2.98
3489440,Morant Bay,20,JM,1603764455,78,17.88,-76.41,82.4,20.8
1685422,Sulangan,90,PH,1603764457,74,11.14,123.72,83.3,7.65
4047434,Russell,40,US,1603764458,83,32.35,-85.2,73.4,4.7
4031742,Egvekinot,100,RU,1603764459,96,66.32,-179.17,22.8,1.63
1516589,Zhezkazgan,14,KZ,1603764460,86,47.8,67.71,33.06,15.43
1160939,Iranshahr,0,IR,1603764461,34,27.2,60.68,56.93,1.99
1630723,Poso,100,ID,1603764427,58,-1.4,120.75,87.49,2.15
1486164,Yelanskiy,100,RU,1603764465,96,56.84,62.5,27.82,22.5
2206874,Waipawa,100,NZ,1603764466,93,-41.41,175.52,51.8,23.04
1267390,Kavaratti,22,IN,1603764467,70,10.57,72.64,81.91,5.01
6165406,Thompson,5,CA,1603764185,57,55.74,-97.86,23.0,6.93
2079582,Alyangula,90,AU,1603764469,66,-13.85,136.42,84.2,8.05
3838233,Salta,0,AR,1603764471,39,-24.79,-65.41,66.2,3.36
2090021,Namatanai,47,PG,1603764472,60,-3.67,152.43,86.68,3.91
2063036,Port Lincoln,22,AU,1603764473,71,-34.73,135.87,60.85,11.12
964420,Port Elizabeth,90,ZA,1603764474,93,-33.92,25.57,64.4,16.11
1106643,Quatre Cocos,40,MU,1603764189,78,-20.21,57.76,73.0,8.05
1853174,Sakaiminato,20,JP,1603764476,72,35.55,133.23,60.8,3.36
2019118,Nizhniy Tsasuchey,0,RU,1603764477,78,50.52,115.13,28.72,15.97
371745,Kutum,0,SD,1603764478,25,14.2,24.67,68.11,7.87
1698354,Namuac,100,PH,1603764479,77,18.61,121.17,83.37,13.24
2111704,Namie,56,JP,1603764480,65,37.48,141.0,66.99,3.0
2094342,Kavieng,22,PG,1603764481,60,-2.57,150.8,85.69,4.56
4164601,Miramar,40,US,1603764483,88,25.99,-80.23,82.4,9.17
2071860,Esperance,0,AU,1603764484,60,-33.87,121.9,71.6,3.36
1855342,Nishihara,20,JP,1603764485,47,26.18,127.76,80.6,11.41
107304,Buraidah,0,SA,1603764487,30,26.33,43.98,60.8,4.7
1855612,Nara,20,JP,1603764353,59,34.69,135.8,72.0,2.24
2014836,Tupik,100,RU,1603764489,94,54.43,119.93,24.67,13.47
2146219,Hervey Bay,99,AU,1603764490,80,-25.3,152.85,80.01,4.0
1835848,Seoul,1,KR,1603764298,71,37.57,126.98,60.8,1.57
5847411,Kahului,1,US,1603764492,52,20.89,-156.47,87.8,6.93
2387495,Carnot,95,CF,1603764493,92,4.94,15.87,69.48,2.46
2120612,Tigil',100,RU,1603764495,62,57.8,158.67,43.97,4.27
338345,Edd,0,ER,1603764496,38,13.93,41.69,81.63,12.86
2128975,Nemuro,40,JP,1603764497,62,43.32,145.57,53.6,2.24
2027296,Aykhal,100,RU,1603764499,83,66.0,111.5,-5.8,4.61
1849892,Tottori-shi,20,JP,1603764501,59,35.5,134.23,62.6,4.7
2070998,Geraldton,0,AU,1603764502,49,-28.77,114.6,73.4,9.17
1624041,Ternate,97,ID,1603764503,65,0.8,127.4,85.3,0.4
1272902,Dhanwār,0,IN,1603764504,54,24.42,85.98,71.96,3.49
4944903,Nantucket,90,US,1603764505,93,41.28,-70.1,59.0,3.36
3664980,Boa Vista,0,BR,1603764506,58,2.82,-60.67,86.0,8.05
752278,Alaca,0,TR,1603764507,39,40.17,34.84,59.67,4.25
1268754,Jutogh,5,IN,1603764508,67,31.1,77.12,60.8,4.7
1485997,Yeniseysk,100,RU,1603764509,97,58.45,92.17,28.56,7.07
1855540,Naze,20,JP,1603764510,57,28.37,129.48,78.8,8.05
2112802,Hasaki,75,JP,1603764511,72,35.73,140.83,66.99,9.17
6111862,Port Hardy,90,CA,1603764512,100,50.7,-127.42,44.6,5.82
2643044,Margate,8,GB,1603764514,83,51.38,1.39,51.01,1.99
5367788,Lompoc,1,US,1603764346,55,34.64,-120.46,62.6,8.05
3598787,Champerico,100,GT,1603764516,96,14.3,-91.92,70.0,6.89
2522437,Adeje,20,ES,1603764517,64,28.12,-16.73,69.8,6.93
2377457,Nouadhibou,0,MR,1603764518,64,20.93,-17.03,75.2,19.46
988698,Knysna,0,ZA,1603764519,100,-34.04,23.05,60.8,6.93
6167817,Torbay,90,CA,1603764521,59,47.67,-52.73,37.99,11.41
611964,Shorap’ani,0,GE,1603764522,62,42.09,43.09,59.0,13.87
3466165,Cidreira,100,BR,1603764523,92,-30.18,-50.21,64.63,14.99
534560,Lodeynoye Pole,100,RU,1603764524,91,60.73,33.55,46.81,9.84
2427336,Moussoro,0,TD,1603764525,23,13.64,16.49,78.55,10.2
2026786,Berezovyy,95,RU,1603764528,63,51.67,135.7,41.79,2.64
3421719,Narsaq,97,GL,1603764529,59,60.92,-46.05,33.8,3.36
158214,Kasulu,20,TZ,1603764531,94,-4.58,30.1,68.0,1.83
795243,Snezhnogorsk,75,RU,1603764532,100,69.19,33.25,33.8,2.24
2094027,Kieta,77,PG,1603764534,63,-6.22,155.63,86.02,5.53
5905616,Bonnyville,90,CA,1603764535,91,54.27,-110.73,32.0,4.7
3396101,Luzilândia,1,BR,1603764536,83,-3.46,-42.37,77.43,7.11
3353383,Rundu,1,NA,1603764522,24,-17.93,19.77,68.47,6.62
5546220,Saint George,1,US,1603764514,9,37.1,-113.58,46.4,27.51
2655288,Boddam,90,GB,1603764539,93,57.47,-1.78,46.4,8.05
3541440,Sagua la Grande,40,CU,1603764540,88,22.81,-80.08,77.0,5.82
2126123,Chokurdakh,100,RU,1603764526,95,70.63,147.92,6.58,10.11
2206894,Hokitika,100,NZ,1603764542,65,-42.72,170.97,61.88,6.64
2156643,Mount Gambier,75,AU,1603764543,67,-37.83,140.77,59.0,14.99
580584,Askarovo,75,RU,1603764544,63,53.34,58.51,30.2,20.13
3883457,Lebu,100,CL,1603764530,87,-37.62,-73.65,50.99,7.47
229112,Moroto,100,UG,1603764546,67,2.53,34.67,68.47,4.61
2037485,Erenhot,0,CN,1603764548,60,43.65,111.98,36.59,11.5
3430443,Necochea,0,AR,1603764549,88,-38.55,-58.74,51.01,7.0
744537,Karacabey,0,TR,1603764550,100,40.22,28.4,50.0,3.36
7372400,Weihe,100,CN,1603764551,76,33.0,105.32,47.23,3.76
94787,Kirkuk,0,IQ,1603764552,33,35.47,44.39,59.74,4.56
3894426,Coyhaique,0,CL,1603764553,52,-45.58,-72.07,44.6,3.36
2178753,Kirakira,100,SB,1603764554,76,-10.45,161.92,84.09,6.6
3465644,Conselheiro Lafaiete,0,BR,1603764377,95,-20.66,-43.79,61.27,2.82
5861897,Fairbanks,90,US,1603764410,79,64.84,-147.72,28.4,8.05
2448083,Agadez,0,NE,1603764557,24,19.75,10.25,66.83,5.88
1641977,Kalianget,99,ID,1603764558,63,-7.05,113.93,85.42,1.57
1487839,Vakhrushevo,90,RU,1603764559,92,55.23,61.72,28.4,31.32
3385670,Urucará,19,BR,1603764560,69,-2.54,-57.76,81.03,2.15
3361934,Saldanha,4,ZA,1603764562,87,-33.01,17.94,60.8,3.36
1295765,Sittwe,7,MM,1603764563,84,20.15,92.9,80.28,5.26
1734098,Keningau,40,MY,1603764565,94,5.34,116.16,75.2,11.41
614934,Didi Lilo,0,GE,1603764566,93,41.74,44.96,48.2,3.36
1493162,Salym,100,RU,1603764567,96,60.06,71.48,26.8,14.23
2126199,Cherskiy,82,RU,1603764544,94,68.75,161.3,7.3,7.56
614613,Gali,0,GE,1603764569,29,42.63,41.74,64.69,5.35
1274342,Chhātāpur,0,IN,1603764570,77,26.22,87.02,74.64,2.17
1488931,Turinskaya Sloboda,100,RU,1603764572,96,57.62,64.39,29.19,21.99
3414079,Olafsvik,100,IS,1603764573,71,64.89,-23.71,40.35,20.07
5983626,Invermere,76,CA,1603764574,74,50.52,-116.04,21.99,1.99
290030,Doha,0,QA,1603764421,69,25.29,51.53,78.8,4.7
4726206,San Antonio,90,US,1603764541,81,29.42,-98.49,50.0,21.92
5924351,Clyde River,0,CA,1603764577,86,70.47,-68.59,9.72,3.94
1337610,Thinadhoo,75,MV,1603764579,67,0.53,72.93,83.07,7.18
4032369,Pangai,75,TO,1603764580,94,-19.8,-174.35,73.4,8.05
583345,Aleksandrov Gay,0,RU,1603764582,84,50.15,48.57,35.33,8.7
5856516,‘Āhuimanu,75,US,1603764583,70,21.44,-157.84,84.2,4.7
4033077,Vaitape,100,PF,1603764584,74,-16.52,-151.75,81.5,17.49
2027316,Ayan,1,RU,1603764585,67,56.45,138.17,35.62,2.98
2629833,Husavik,90,IS,1603764561,59,66.04,-17.34,35.6,5.82
372884,Kapoeta,75,SS,1603764588,69,4.77,33.59,75.96,4.85
110690,Faya,0,SA,1603764589,24,18.39,42.45,55.4,5.82
3867427,Mayor Pablo Lagerenza,46,PY,1603764590,66,-19.93,-60.77,74.1,4.83
2025630,Chara,17,RU,1603764591,89,56.91,118.26,17.91,4.88
108410,Riyadh,0,SA,1603764402,38,24.69,46.72,60.8,2.24
2514216,Manacor,20,ES,1603764594,48,39.57,3.21,60.8,5.82
3939168,Huarmey,65,PE,1603764595,81,-10.07,-78.15,64.29,8.05
174448,Abu Kamal,0,SY,1603764596,28,34.45,40.92,63.39,4.74
4132093,Springdale,90,US,1603764391,100,36.19,-94.13,36.0,9.17
1526619,Aktas,75,KZ,1603764598,77,49.78,72.96,37.4,20.13
1625908,Sungai Raya,100,ID,1603764599,76,0.7,108.9,81.75,8.88
2121385,Severo-Kuril'sk,99,RU,1603764600,81,50.68,156.12,45.05,4.52
476055,Velikodvorskiy,96,RU,1603764601,85,55.25,40.67,36.07,5.35
3839307,Rawson,100,AR,1603764580,36,-43.3,-65.1,62.82,8.39
409417,Shirvan,0,AZ,1603764603,66,39.95,48.9,57.15,2.55
1735086,Nibong Tebal,20,MY,1603764605,74,5.17,100.48,84.2,4.03
3357114,Grootfontein,21,NA,1603764606,42,-19.57,18.12,68.22,12.91
2450173,Taoudenni,0,ML,1603764608,22,22.68,-3.98,82.83,9.4
57000,Hobyo,70,SO,1603764609,80,5.35,48.53,78.42,3.13
5720495,Coos Bay,1,US,1603764611,62,43.37,-124.22,52.0,18.34
3836669,San Rafael,0,AR,1603764612,26,-34.62,-68.33,66.99,8.48
170062,Aleppo Governorate,0,SY,1603764613,31,36.25,37.5,63.73,6.96
95788,Hīt,0,IQ,1603764614,24,33.64,42.83,67.75,6.78
4074736,Marshall,1,US,1603764523,88,34.38,-86.33,64.99,3.36
3466980,Caravelas,8,BR,1603764577,90,-17.71,-39.25,73.53,3.47
3984997,San Quintín,0,MX,1603764617,47,30.48,-115.95,65.05,8.52
2452655,Niono,87,ML,1603764619,17,14.25,-5.99,77.72,5.12
3664078,Humaitá,99,BR,1603764620,80,-7.51,-63.02,77.67,2.46
1317397,Kyaiklat,75,MM,1603764621,100,16.43,95.73,77.0,4.7
3386931,Tamandaré,0,BR,1603764622,82,-8.76,-35.1,76.8,10.67
703716,Kulykiv,0,UA,1603764623,98,50.31,24.82,51.01,13.0
2129218,Yoichi,75,JP,1603764625,93,43.2,140.77,57.0,2.24
3521972,Panabá,100,MX,1603764626,85,21.28,-88.27,77.49,10.49
4500920,Brigantine,20,US,1603764627,93,39.41,-74.36,63.0,5.68
2018735,Nyurba,78,RU,1603764628,83,63.28,118.33,14.36,2.15
6162949,Terrace,90,CA,1603764338,100,54.52,-128.6,46.4,25.28
235826,Zemio,93,CF,1603764630,92,5.03,25.14,68.9,0.65
3902685,Eucaliptus,100,BO,1603764631,51,-17.58,-67.52,53.06,3.36
3401148,Cururupu,100,BR,1603764632,85,-1.83,-44.87,77.18,3.85
1337612,Dhidhdhoo,2,MV,1603764634,70,6.88,73.1,82.72,5.14
3836277,Santa Fe,0,AR,1603764373,70,-31.63,-60.7,61.0,5.88
3464008,Esmeraldas,0,BR,1603764636,68,-19.76,-44.31,71.6,2.24
161616,Balkanabat,100,TM,1603764637,31,39.51,54.37,62.02,3.0
88319,Benghazi,0,LY,1603764638,63,32.12,20.07,70.57,9.13
3461888,Guarapari,0,BR,1603764639,78,-20.67,-40.5,73.4,10.29
1263968,Manali,40,IN,1603764518,94,13.17,80.27,80.6,2.24
3374210,São Filipe,98,CV,1603764641,80,14.9,-24.5,79.59,9.86
1850523,Tateyama,75,JP,1603764642,72,34.98,139.87,66.0,17.22
3190966,Sesvete,0,HR,1603764643,93,45.83,16.12,55.99,4.7
2264923,Peniche,69,PT,1603764644,86,39.36,-9.38,55.0,5.99
4392354,Jasper,90,US,1603764594,99,37.2,-94.35,32.0,11.41
2022083,Alekseyevsk,85,RU,1603764646,93,57.84,108.35,21.58,3.22
2245170,Podor,0,MR,1603764648,12,16.65,-14.96,88.77,8.75
6137462,Saint-Augustin,100,CA,1603764649,82,51.23,-58.65,32.94,10.67
1798760,Pingliang,100,CN,1603764651,72,35.54,106.69,42.55,5.77
3662489,Santa Isabel Rio Negro,68,BR,1603764652,92,-0.41,-65.02,75.9,2.51
3421982,Maniitsoq,26,GL,1603764653,87,65.42,-52.9,24.28,6.71
2032201,Bulgan,0,MN,1603764655,68,48.81,103.53,32.76,4.38
6061979,Lumsden,20,CA,1603764656,72,50.65,-104.87,17.6,10.29
3175096,Laas,75,IT,1603764657,70,46.62,10.7,45.0,8.05
292968,Abu Dhabi,0,AE,1603764492,39,24.47,54.37,78.8,5.82
3372760,Praia da Vitória,75,PT,1603764659,94,38.73,-27.07,69.8,10.07
2610726,Varde,81,DK,1603764451,93,55.62,8.48,50.0,10.29
4013679,Coahuayana Viejo,75,MX,1603764540,83,18.73,-103.68,75.2,2.21
686090,Asău,0,RO,1603764663,98,46.43,26.4,48.0,3.31
2281120,Tabou,100,CI,1603764664,88,4.42,-7.35,77.54,7.07
2077895,Alice Springs,0,AU,1603764420,17,-23.7,133.88,77.0,8.05
3576994,Cockburn Town,94,TC,1603764666,79,21.46,-71.14,83.17,19.69
6150293,Smoky Lake,100,CA,1603764667,98,54.12,-112.47,34.0,4.0
1639431,Kraksaan,100,ID,1603764668,63,-7.76,113.4,85.78,4.03
2353151,Aba,100,NG,1603764669,93,5.11,7.37,74.95,0.72
1519924,Kushmurun,100,KZ,1603764670,98,52.45,64.63,30.61,27.27
3356343,Karasburg,0,NA,1603764671,43,-28.02,18.75,60.42,6.8
2447513,Arlit,0,NE,1603764672,19,18.74,7.39,73.81,6.91
1529484,Kumul,100,CN,1603764674,46,42.8,93.45,46.69,4.16
3573374,The Valley,40,AI,1603764532,88,18.22,-63.06,82.4,9.17
3728097,Les Cayes,100,HT,1603764676,82,18.2,-73.75,78.94,3.96
3899695,Ancud,20,CL,1603764680,81,-41.87,-73.82,46.0,4.7
3453060,Pontes e Lacerda,100,BR,1603764681,91,-15.23,-59.34,74.55,4.47
4845585,Westport,90,US,1603764654,87,41.14,-73.36,59.0,9.17
1262260,Nagapattinam,89,IN,1603764683,78,10.77,79.83,80.11,6.76
1489656,Teya,87,RU,1603764684,95,60.38,92.63,17.08,3.96
6255012,Flinders,75,AU,1603764685,87,-34.58,150.86,68.0,6.93
1337617,Muli,29,MV,1603764686,73,2.92,73.57,82.85,7.02
286245,Sur,0,OM,1603764687,64,22.57,59.53,68.43,3.44
4676740,Brownsville,1,US,1603764460,74,25.9,-97.5,80.6,9.17
2618795,Klaksvík,55,FO,1603764530,66,62.23,-6.59,33.8,1.12
2180815,Tuatapere,50,NZ,1603764690,62,-46.13,167.68,57.99,5.99
6148373,Sioux Lookout,75,CA,1603764691,62,50.1,-91.92,24.8,9.17
5354943,Half Moon Bay,1,US,1603764510,29,37.46,-122.43,66.2,8.05
2966356,Bantry,90,IE,1603764693,100,51.68,-9.45,48.2,13.87
2138285,Tadine,19,NC,1603764694,72,-21.55,167.88,77.76,16.42
945945,Upington,0,ZA,1603764695,39,-28.45,21.26,78.8,8.05
1244926,Hambantota,75,LK,1603764697,100,6.12,81.12,78.8,2.24
2129870,Mikasa,75,JP,1603764698,93,43.25,141.9,57.0,2.24
5110092,Brewster,90,US,1603764699,100,41.4,-73.62,54.0,0.78
3893629,Coquimbo,0,CL,1603764700,87,-29.95,-71.34,53.6,3.36
1490256,Talnakh,40,RU,1603764701,84,69.49,88.4,3.2,6.71
5563397,Eureka,1,US,1603764702,47,40.8,-124.16,57.2,6.93
569231,Cherepet',89,RU,1603764703,87,54.12,36.38,42.8,4.47
5594956,Hailey,5,US,1603764704,53,43.52,-114.32,27.0,6.93
1738050,Marabu,40,MY,1603764706,94,4.41,114.01,75.2,5.82
3614835,Barra Patuca,100,HN,1603764707,75,15.8,-84.28,80.11,6.44
1513990,Gazli,45,UZ,1603764708,51,40.13,63.45,48.83,4.29
1507565,Dalmatovo,100,RU,1603764709,96,56.26,62.94,29.16,29.62
3458266,Macaé,40,BR,1603764710,100,-22.37,-41.79,69.8,1.12
934649,Cap Malheureux,3,MU,1603764712,76,-19.98,57.61,73.0,3.0
2449893,Tessalit,1,ML,1603764573,20,20.2,1.01,72.59,3.83
2022304,Khorinsk,3,RU,1603764714,79,52.17,109.77,24.8,4.27
103630,Najrān,0,SA,1603764715,26,17.49,44.13,59.0,1.21
1056899,Sambava,6,MG,1603764531,84,-14.27,50.17,69.94,7.34
2521582,Arona,20,ES,1603764717,64,28.1,-16.68,69.8,6.93
2161515,Kiama,75,AU,1603764718,87,-34.68,150.87,64.0,6.93
5380437,Pacific Grove,0,US,1603764554,51,36.62,-121.92,60.01,3.53
1174211,Khangarh,0,PK,1603764720,77,29.92,71.16,64.4,3.24
1529376,Korla,85,CN,1603764721,52,41.76,86.15,44.85,4.97
2422465,Conakry,100,GN,1603764674,82,9.54,-13.68,80.92,7.27
3996647,Mapimí,5,MX,1603764723,20,25.82,-103.85,87.8,5.99
3397763,Jacareacanga,0,BR,1603764724,85,-6.22,-57.75,76.64,1.14
924705,Nkhotakota,58,MW,1603764725,67,-12.93,34.3,76.17,5.1
2656847,Atherton,35,GB,1603764450,84,53.52,-2.49,48.0,5.99
2098329,Daru,42,PG,1603764727,73,-9.08,143.21,83.82,11.21
2644605,Lerwick,0,GB,1603764729,100,60.15,-1.15,46.4,6.93
6050066,La Ronge,75,CA,1603764731,58,55.1,-105.28,26.6,5.82
4021858,Guerrero Negro,0,MX,1603764732,37,27.98,-114.06,66.69,16.93
751816,Artvin Province,0,TR,1603764687,48,41.17,41.83,62.6,23.04
1847947,Shingū,20,JP,1603764735,48,33.73,135.98,66.2,4.7
5520076,Del Rio,90,US,1603764688,66,29.36,-100.9,48.2,17.22
1855476,Nichinan,40,JP,1603764547,64,31.6,131.37,68.0,6.93
3921355,Challapata,94,BO,1603764738,43,-18.9,-66.77,54.32,3.98
1497210,Novoagansk,100,RU,1603764739,96,61.94,76.66,21.67,15.01
582447,Almaznyy,0,RU,1603764740,61,48.04,40.05,48.2,17.9
3406545,Balsas,50,BR,1603764741,76,-7.53,-46.04,77.86,2.89
1808857,Hanzhong,100,CN,1603764742,73,33.07,107.03,56.19,1.1
1307741,Myitkyina,0,MM,1603764743,67,25.38,97.4,78.89,1.86
3923570,Atocha,0,BO,1603764745,38,-20.93,-66.23,52.92,0.92
1510689,Baykit,68,RU,1603764746,93,61.67,96.37,14.16,4.36
2278158,Buchanan,75,LR,1603764747,94,5.88,-10.05,78.8,4.85
2034615,Tahe,100,CN,1603764748,85,52.33,124.73,36.23,3.06
2108857,Gizo Government Station,77,SB,1603764647,72,-8.1,156.84,83.35,3.83
4166673,Ocala,40,US,1603764750,78,29.19,-82.14,78.8,6.93
5954718,Flin Flon,4,CA,1603764751,89,54.77,-101.86,23.2,5.64
3522526,Nuevo Progreso,2,MX,1603764752,65,23.17,-97.95,75.99,1.01
1511736,Altayskoye,100,RU,1603764753,65,51.95,85.33,42.06,8.99
3464809,Descalvado,0,BR,1603764754,73,-21.9,-47.62,69.8,3.36
1784853,Zhaoqing,9,CN,1603764755,99,23.05,112.46,81.0,6.04
1053507,Vondrozo,39,MG,1603764756,100,-22.82,47.28,58.35,1.12
2122783,Katangli,96,RU,1603764757,74,51.71,143.23,42.42,11.63
1631766,Pekalongan,100,ID,1603764758,69,-6.89,109.68,73.0,1.28
2641434,Northam,100,GB,1603764759,85,51.03,-4.22,50.0,4.0
3450188,Santa Isabel,20,BR,1603764761,88,-23.32,-46.22,68.0,3.36
690960,Turka,41,UA,1603764762,96,49.15,23.03,51.01,18.99
1787227,Jiangdu,100,CN,1603764763,84,32.43,119.56,64.0,5.39
1278715,Amreli,0,IN,1603764764,35,21.62,71.23,76.41,4.03
935214,Saint-Pierre,90,RE,1603764766,78,-21.34,55.48,71.6,4.7
2212775,Sabha,1,LY,1603764767,31,27.04,14.43,68.41,10.96
3372783,Ponta Delgada,75,PT,1603764768,88,37.73,-25.67,68.0,17.22
1168700,Ormara,0,PK,1603764769,53,25.21,64.64,75.33,8.08
64814,Bandarbeyla,38,SO,1603764770,78,9.49,50.81,73.6,8.68
2315026,Kasongo-Lunda,98,CD,1603764771,90,-6.47,16.82,69.1,0.6
1498633,Mishkino,100,RU,1603764772,98,55.34,63.92,31.42,31.81
1505991,Igarka,0,RU,1603764773,89,67.47,86.58,-3.66,6.2
1650213,Banjarmasin,40,ID,1603764702,83,-3.32,114.59,84.2,8.05
1737185,Kapit,100,MY,1603764569,84,2.02,112.93,78.26,2.64
3450083,Santa Maria,75,BR,1603764533,88,-29.68,-53.81,66.2,10.29
1188569,Sarishābāri,0,BD,1603764778,76,24.73,89.83,79.16,3.87
3855065,General Roca,0,AR,1603764779,24,-39.03,-67.58,66.2,10.29
5949568,Estevan,1,CA,1603764780,85,49.13,-102.98,15.8,11.41
3929611,San Jerónimo,96,PE,1603764782,64,-11.95,-75.28,54.84,4.68
904241,Mungwi,61,ZM,1603764783,64,-10.17,31.37,64.63,3.87
53654,Mogadishu,52,SO,1603764784,83,2.04,45.34,79.2,7.49
2742416,Barcelos,75,PT,1603764785,93,41.54,-8.62,53.6,6.93
72181,Marzuq,51,YE,1603764786,31,14.4,46.47,59.38,3.36
5972762,Hay River,90,CA,1603764787,100,60.82,-115.8,24.8,9.17
3091523,Mogilno,77,PL,1603764788,93,52.66,17.96,48.99,7.49
4787534,Sterling,75,US,1603764752,93,39.01,-77.43,57.0,1.68
1696188,Palauig,100,PH,1603764790,69,15.44,119.9,85.86,12.86
2339156,Idah,100,NG,1603764791,94,7.11,6.73,74.12,1.14
3662761,Porto Walter,100,BR,1603764792,98,-8.27,-72.74,73.62,2.68
1817240,Baiyin,90,CN,1603764793,93,36.56,104.21,39.0,2.24
5364271,Laguna,1,US,1603764731,8,38.42,-121.42,68.0,12.75
2274275,Robertsport,97,LR,1603764796,82,6.75,-11.37,80.1,8.34
355449,Esna,0,EG,1603764797,36,25.29,32.55,72.54,9.26
2173323,Bundaberg,75,AU,1603764798,65,-24.85,152.35,80.6,13.87
1622318,Waingapu,10,ID,1603764576,54,-9.66,120.26,87.58,7.31
4036284,Alofi,75,NU,1603764544,74,-19.06,-169.92,78.8,19.46
1220853,Orzu,0,TJ,1603764801,87,37.56,68.82,42.8,2.28
5919815,Channel-Port aux Basques,100,CA,1603764802,74,47.57,-59.14,40.12,10.51
4026082,Lázaro Cárdenas,100,MX,1603764803,87,17.96,-102.2,81.18,7.94
2634739,Warrington,27,GB,1603764673,87,53.39,-2.58,48.0,5.82
102527,Sakakah,0,SA,1603764805,11,29.97,40.21,69.8,5.82
2377450,Nouakchott,0,MR,1603764806,20,18.09,-15.98,77.0,3.36
5990669,Kelvington,24,CA,1603764807,95,52.17,-103.53,16.11,7.72
2034754,Shunyi,0,CN,1603764808,17,40.12,116.65,57.99,8.95
1788206,Xixiang,100,CN,1603764809,99,35.16,112.86,64.99,9.35
2013918,Ust-Maya,93,RU,1603764811,90,60.42,134.53,19.09,2.55
55671,Kismayo,5,SO,1603764812,85,-0.36,42.55,78.8,9.84
4031637,Lavrentiya,0,RU,1603764813,91,65.58,-171.0,31.6,4.99
3357247,Gobabis,100,NA,1603764814,35,-22.45,18.97,72.72,7.54
778707,Mehamn,15,NO,1603764815,78,71.04,27.85,37.58,9.71
3646487,Carora,24,VE,1603764817,73,10.18,-70.08,75.34,7.76
3388341,Passo de Camaragibe,75,BR,1603764818,88,-9.24,-35.49,75.2,3.36
1177446,Gwadar,0,PK,1603764820,55,25.12,62.33,71.02,4.27
2191562,Dunedin,51,NZ,1603764583,66,-45.87,170.5,55.0,8.99
2097418,Finschhafen,12,PG,1603764822,70,-6.6,147.87,84.43,4.45
